<markers>
<marker ly="1" lcf="1" pav_en="Baltadvaris castle" pav="Baltadvario pilis" longti="25.24" lat="55.2264" icon="1x/castleicon.png" adresas="Videniškės, Molėtų raj" telnr="" web="" webc="" aut="user:Vaidas V / " teis="GFDL" photo="nuotraukos/baltadvario_pilis.jpeg"/>
<marker ly="2" lcf="2" pav_en="Biržai castle" pav="Biržų pilis" longti="24.7532" lat="56.205" icon="1x/castleicon.png" adresas="J, Radvilos g. 3, Biržai 41175" telnr="(8-45) 033390" web="https://www.birzumuziejus.lt/" webc="Biržų krašto muziejaus svetainė" aut="Wojsyl / " teis="CC BY-SA" photo="nuotraukos/birzupilis.jpg"/>
<marker ly="3" lcf="3" pav_en="Dubingiai castle" pav="Dubingių piliavietė" longti="25.4441" lat="55.0595" icon="1x/castleicon.png" adresas="Dubingiai, Molėtų raj." telnr="" web="" webc="" aut="Rimantas Lazdynas / " teis="CC BY-SA" photo="nuotraukos/dubingiai.jpg"/>
<marker ly="4" lcf="4" pav_en="Gediminas castle" pav="Gedimino pilis" longti="25.2885" lat="54.6867" icon="1x/castleicon.png" adresas="Arsenalo g. 5, Vilnius 01143" telnr="(8-5) 261 745" web="http://www.lnm.lt/gedimino-pilies-bokstas/" webc="Lietuvos nacionalinio muziejaus svetainė" aut="Cropped by me / " teis="CC BY-SA" photo="nuotraukos/gediminas.jpg"/>
<marker ly="5" lcf="5" pav_en="Kaunas castle" pav="Kauno pilis" longti="23.8832" lat="54.8989" icon="1x/castleicon.png" adresas="Pilies g. 17, Kaunas 44275" telnr="(8-37) 222414" web="https://kaunomuziejus.lt/" webc="Kauno miesto muziejaus svetainė" aut="Skelanard / " teis="CC BY-SA" photo="nuotraukos/kaunas.jpg"/>
<marker ly="6" lcf="6" pav_en="Klaipėda castle" pav="Klaipėdos piliavietė" longti="21.1267" lat="55.7058" icon="1x/castleicon.png" adresas="Pilies g. 4, Klaipėda 91240" telnr="" web="" webc="" aut="Andrius Vanagas /" teis="CC BY" photo="nuotraukos/Klaipeda_castle_ruins.jpg"/>
<marker ly="7" lcf="7" pav_en="Medininkai castle" pav="Medininkų pilis" longti="25.6478" lat="54.5394" icon="1x/castleicon.png" adresas="Šv. Kazimiero g. 2, Medininkai 13192" telnr="(8-5) 250 5595" web="https://trakaimuziejus.lt/medininku-pilis" webc="Medininkų pilies muziejaus svetainė" aut="Kontis Šatūnas / " teis="CC BY-SA" photo="nuotraukos/medininkai.jpg"/>
<marker ly="8" lcf="8" pav_en="Norviliškiai castle" pav="Norviliškių pilis" longti="25.7794" lat="54.2363" icon="1x/castleicon.png" adresas="Norviliškės, 17145" telnr="(8-682) 533535" web="http://www.norviliskiu-pilis.lt/" webc="Norviliškių pilies svetainė" aut="Juliux / " teis="CC BY-SA" photo="nuotraukos/norviliskes.jpg"/>
<marker ly="9" lcf="9" pav_en="Panemune castle" pav="Panemunės pilis" longti="22.9842" lat="55.0993" icon="1x/castleicon.png" adresas="Panemūnės Pilis I, 74464" telnr="(8-447) 41729" web="http://www.panemunespilis.lt/" webc="Panemunės pilies svetainė" aut="" teis="" photo="nuotraukos/panemunes.jpg"/>
<marker ly="10" lcf="10" pav_en="Raudondvaris castle" pav="Raudondvario pilis" longti="25.5477" lat="54.8702" icon="1x/castleicon.png" adresas="Pilies tak. 1, Raudondvaris 54127" telnr="(8-656) 50755" web="https://www.raudondvariodvaras.lt/" webc="Raudondvario pilies svetainė" aut="Juliux / " teis="CC BY-SA" photo="nuotraukos/raudondvaris.jpg"/>
<marker ly="11" lcf="11" pav_en="Raudonė castle" pav="Raudonės pilis" longti="23.1282" lat="55.0966" icon="1x/castleicon.png" adresas=" Pilies gatvė 1, Raudonė 74456" telnr="(8-447) 45445" web="" webc="" aut="E.giedraitis at the Lithuanian language Wikipedia / " teis="GFDL " photo="nuotraukos/raudone.jpg"/>
<marker ly="12" lcf="12" pav_en="Rokantiškiai castle" pav="Rokantiškių pilis" longti="25.3893" lat="54.69" icon="1x/castleicon.png" adresas="Vilnius 11301" telnr="" web="" webc="" aut="Manorku /" teis="GFDL" photo="nuotraukos/rokantiskes.jpeg"/>
<marker ly="13" lcf="13" pav_en="Old Trakai castle" pav="Senųjų Trakų pilis" longti="24.9848" lat="54.6056" icon="1x/castleicon.png" adresas="Senieji Trakai 21145" telnr="" web="http://www.seniejitrakai.lt/place-lt-8/text" webc="Trakų istorinio nacionalinio parko svetainė" aut="" teis="" photo="nuotraukos/sentrakai.JPG"/>
<marker ly="14" lcf="14" pav_en="Siesikai castle" pav="Siesikų pilis" longti="24.5118" lat="55.2864" icon="1x/castleicon.png" adresas="Daugalių kaimas, 1, 20325" telnr="(8-612) 94091" web="https://ukmergesmuziejus.lt/siesiku-pilis/" webc="Ukmergės kraštotyros muziejaus svetainė" aut="Qwarc at the Lithuanian language Wikipedia / " teis="CC BY-SA" photo="nuotraukos/siesikai.jpg"/>
<marker ly="15" lcf="15" pav_en="Palace (Lower castle)" pav="Valdovų rūmai (Žemutinė pilis)" longti="25.2869" lat="54.6859" icon="1x/castleicon.png" adresas="Katedros a. 4, Vilnius 01143" telnr="(8 5) 212 7476" web="https://www.valdovurumai.lt/" webc="Valdovų rūmų svetainė" aut="Pofka / " teis="CC BY-SA" photo="nuotraukos/valdovai.jpg"/>
<marker ly="16" lcf="16" pav_en="Voruta castle" pav="Vorutos piliavietė" longti="25.1379" lat="55.5452" icon="1x/castleicon.png" adresas="Volupio g., Anykščiai 29109" telnr="" web="" webc="" aut="Hugo.arg / " teis="CC BY-SA" photo="nuotraukos/voruta.JPG"/>
<marker ly="17" lcf="17" pav_en="Kaunas fortress 1st fort" pav="Kauno tvirtovės 1 fortas" longti="23.8634" lat="54.8837" icon="1x/forticon.png" adresas="Šiltnamių g., Noreikiškės 53371" telnr="" web="" webc="" aut="Tomas Čekanavičius / " teis="CC BY-SA " photo="nuotraukos/1fortas.jpg"/>
<marker ly="18" lcf="18" pav_en="Kaunas fortress 2nd fort" pav="Kauno tvirtovės 2 fortas" longti="23.8742" lat="54.8622" icon="1x/forticon.png" adresas="Pilviškių g., Kaunas 46408" telnr="" web="" webc="" aut="Tomas Čekanavičius / " teis="CC BY-SA " photo="nuotraukos/2fortas.jpg"/>
<marker ly="19" lcf="19" pav_en="Kaunas fortress 3rd fort" pav="Kauno tvirtovės 3 fortas" longti="23.9049" lat="54.8512" icon="1x/forticon.png" adresas="Titnago g. 43a, Seniava 53275" telnr="" web="" webc="" aut="Tomas Čekanavičius / " teis="CC BY-SA" photo="nuotraukos/3fortas.jpg"/>
<marker ly="20" lcf="20" pav_en="Kaunas fortress 4th fort" pav="Kauno tvirtovės 4 fortas" longti="23.9518" lat="54.8498" icon="1x/forticon.png" adresas="Plytinės g. 15, Kaunas 45412" telnr="(8-37) 309350" web="" webc="" aut="Tomas Čekanavičius / " teis="CC BY-SA" photo="nuotraukos/4fortas.jpg"/>
<marker ly="21" lcf="21" pav_en="Kaunas fortress 5rd fort" pav="Kauno tvirtovės 5 fortas" longti="23.9984" lat="54.8617" icon="1x/forticon.png" adresas="Kaunas 45466" telnr="" web="" webc="" aut="Vilensija / " teis="CC BY-SA " photo="nuotraukos/5fortas.jpg"/>
<marker ly="22" lcf="22" pav_en="Kaunas fortress 6rd fort" pav="Kauno tvirtovės 6 fortas" longti="23.9775" lat="54.9011" icon="1x/forticon.png" adresas="K. Baršausko g., Kaunas 51344" telnr="(8-37) 200024" web="" webc="" aut="Vilensija / " teis="CC BY-SA " photo="nuotraukos/6fortas.jpg"/>
<marker ly="23" lcf="23" pav_en="Trakai island castle" pav="Trakų salos pilis" longti="24.934" lat="54.652" icon="1x/castleicon.png" adresas="Trakai 21142" telnr="" web="https://trakaimuziejus.lt/salos-pilis" webc="Trakų istorijos muziejaus svetainė" aut="Diliff / " teis="CC BY-SA " photo="nuotraukos/takaisala.jpg"/>
<marker ly="24" lcf="24" pav_en="Trakai peninsula castle" pav="Trakų pusiasalio pilis" longti="24.9352" lat="54.6462" icon="1x/castleicon.png" adresas="Kęstučio g. 2, Trakai 21106" telnr="" web="https://trakaimuziejus.lt/pusiasalio-pilis" webc="Trakų istorijos muziejaus svetainė" aut="Wojsyl / " teis="CC BY-SA" photo="nuotraukos/trakaipusia.jpg"/>
<marker ly="25" lcf="25" pav_en="Kaunas fortress 7th fort" pav="Kauno tvirtovės 7 fortas" longti="23.926" lat="54.9155" icon="1x/forticon.png" adresas="Archyvo g. 61, Kaunas 50157" telnr="(8-655) 66550" web="http://www.septintasfortas.lt/" webc="Kauno tvirtovės 7 forto svetainė" aut="Vilensija / " teis="CC BY-SA " photo="nuotraukos/7fortas.jpg"/>
<marker ly="26" lcf="26" pav_en="Kaunas fortress 8th fort" pav="Kauno tvirtovės 8 fortas" longti="23.8865" lat="54.9202" icon="1x/forticon.png" adresas="Pryšmančių g. 2c, Kaunas 48297" telnr="(8-627) 58369" web="" webc="" aut="Anaiptol / " teis="CC BY-SA " photo="nuotraukos/8fortas.jpg"/>
<marker ly="27" lcf="27" pav_en="Kaunas fortress 9th fort" pav="Kauno tvirtovės 9 fortas" longti="23.8709" lat="54.9453" icon="1x/forticon.png" adresas="Žemaičių pl. 75, Kaunas 47435" telnr="(8-37) 377750" web="https://www.9fortomuziejus.lt/" webc="9 forto muziejaus svetainė" aut="Creative / " teis="CC BY-SA " photo="nuotraukos/9fortas.jpg"/>
<marker ly="28" lcf="28" pav_en="Kaunas fortress 10th fort" pav="Kauno tvirtovės 10 fortas" longti="23.8281" lat="54.9275" icon="1x/forticon.png" adresas="Romainių g. 18, Kaunas 47327" telnr="(8-614) 95657" web="" webc="" aut="" teis="" photo="nuotraukos/10fortas.jpg"/>
<marker ly="29" lcf="29" pav_en="Black fortress" pav="Juodoji tvirtovė" longti="21.0719" lat="55.7778" icon="1x/forticon.png" adresas="92380" telnr=" (8-630) 20263" web="https://www.facebook.com/memelnord/" webc="Memel Nord Facebook puslapis" aut="© pamatykLietuvoje.lt" teis="" photo="nuotraukos/juodojifortas.jpg"/>
<marker ly="30" lcf="30" pav_en="Bastion of Vilnius city wall" pav="Vilniaus gynybinės sienos bastėja" longti="25.2905" lat="54.6771" icon="1x/forticon.png" adresas="Bokšto g. 20, Vilnius 01126" telnr="(8-5) 261 2149" web="http://www.lnm.lt/vilniaus-gynybines-sienos-basteja/" webc="Lietuvos nacionalinio muziejaus svetainė" aut="Alma Pater / " teis="CC BY-SA " photo="nuotraukos/basteja.jpg"/>
<marker ly="31" lcf="31" pav_en="The gates of Dawn" pav="Aušros vartai" longti="25.2873" lat="54.6743" icon="1x/forticon.png" adresas="Aušros Vartų g. 14, Vilnius 01303" telnr="(8-5) 212 3513" web="https://www.ausrosvartai.lt/" webc="Aušros vartų svetainė" aut="" teis="" photo="nuotraukos/ausra.jpg"/>
<marker ly="32" lcf="32" pav_en="Kopagalis fortress" pav="Kopgalio tvirtovė" longti="21.0977" lat="55.7168" icon="1x/forticon.png" adresas="Smiltynės g. 3, Klaipėda 93100" telnr="(8-659) 61497" web="https://muziejus.lt/" webc="Lietuvos jūrų muziejaus svetainė" aut="Algirdas at the Lithuanian language Wikipedia / " teis="CC BY-SA " photo="nuotraukos/kopgalis.jpg"/>
<marker ly="33" lcf="33" pav_en="The bridge over the river Neris in Jonava security dot" pav="Tilto per Nerį Jonavoje apsauginis dotas" longti="24.2954" lat="55.0748" icon="1x/forticon.png" adresas="Taurostos g. ir Panerių g., Jonava " telnr="" web="" webc="" aut="© Pagulbi74" teis="" photo="nuotraukos/jonava.JPG"/>
<marker ly="34" lcf="34" pav_en="Alytus castle" pav="Alytaus piliavietė" longti="24.0773" lat="54.3964" icon="1x/castleicon.png" adresas="Piliakalnio g. 9, Alytus 62246" telnr="" web="" webc="" aut="Juliux / " teis="CC BY-SA" photo="nuotraukos/alytus.jpg"/>
<marker ly="35" lcf="35" pav_en="Eišiškiai castle" pav="Eišiškių piliavietė" longti="25.017" lat="54.1756" icon="1x/castleicon.png" adresas="17165" telnr="" web="" webc="" aut="Rimantas Lazdynas / " teis="CC BY-SA " photo="nuotraukos/eisiskiai.jpg"/>
<marker ly="36" lcf="36" pav_en="Kernave castles" pav="Kernavės piliavietės" longti="24.8499" lat="54.8818" icon="1x/castleicon.png" adresas="108 9, Dūkštos 14222" telnr="" web="https://www.kernave.org/" webc="Valstybinio Kernavės kultūrinio rezervato svetainė" aut="" teis="" photo="nuotraukos/kernave.jpg"/>
<marker ly="37" lcf="37" pav_en="Merkinė castle" pav="Merkinės piliavietė" longti="24.1802" lat="54.1582" icon="1x/castleicon.png" adresas="133 21, Merkinė 65336" telnr="" web="" webc="" aut="Arz / " teis="CC BY-SA " photo="nuotraukos/merkine.jpg"/>
<marker ly="38" lcf="38" pav_en="Punia castle" pav="Punios piliavietė" longti="24.0894" lat="54.5123" icon="1x/castleicon.png" adresas="64402" telnr="" web="" webc="" aut="Hugo.arg / " teis="CC BY-SA " photo="nuotraukos/punia.jpg"/>
<marker ly="39" lcf="39" pav_en="Seredžius castle" pav="Seredžiaus piliavietė" longti="23.4043" lat="55.0802" icon="1x/castleicon.png" adresas="Seredžiaus 74404" telnr="" web="" webc="" aut="Dubysa /" teis="GFDL" photo="nuotraukos/seredziaus.jpg"/>
<marker ly="40" lcf="40" pav_en="Skomantai castle" pav="Skomantų piliavietė" longti="21.5193" lat="55.5605" icon="1x/castleicon.png" adresas="Skomantai, Veiviržėnų sen., Klaipėdos raj." telnr="" web="" webc="" aut="Algėrds at the Samogitian language Wikipedia / " teis="CC BY-SA " photo="nuotraukos/skomantai.jpg"/>
<marker ly="41" lcf="41" pav_en="Vėluona castle" pav="Veliuonos piliavietė" longti="23.2796" lat="55.0772" icon="1x/castleicon.png" adresas="Veliuona, Jurbarkas" telnr="" web="" webc="" aut="Hugo.arg / " teis="CC BY-SA" photo="nuotraukos/veluona.jpg"/>
<marker ly="42" lcf="42" pav_en="Rambynas castle" pav="Rambyno piliavietė" longti="22.0203" lat="55.088" icon="1x/castleicon.png" adresas="Nemuno g., Bitėnai, Pagėgių sav. " telnr="" web="" webc="" aut="" teis="" photo="nuotraukos/rambynas.jpg"/>
<marker ly="43" lcf="43" pav_en="Medvėgalis castle" pav="Medvėgalio piliavietė" longti="22.3905" lat="55.6277" icon="1x/castleicon.png" adresas="Karūžiškė II, Šilalės r. 75422 " telnr="" web="" webc="" aut="RaDonas at the Lithuanian language Wikipedia / " teis="GFDL " photo="nuotraukos/medvegalis.jpg"/>
<marker ly="44" lcf="44" pav_en="Rudamina castle" pav="Rudaminos pilis" longti="23.4392" lat="54.2821" icon="1x/castleicon.png" adresas="Rudaminos k., Lazdijų sen., Lazdijų r. sav. 67401" telnr="" web="" webc="" aut="Andrius Vanagas / " teis="CC BY-SA " photo="nuotraukos/rudamina.jpg"/>
<marker ly="45" lcf="45" pav_en="Upytė castle" pav="Upytės piliavietė" longti="24.2245" lat="55.656" icon="1x/castleicon.png" adresas="Krekenavos g., Upytė, Panevėžio r. 38290" telnr="" web="" webc="" aut="" teis="" photo="nuotraukos/upyte.jpg"/>
<marker ly="46" lcf="46" pav_en="Taurapilis castle" pav="Taurapilio piliakalnis" longti="25.8676" lat="55.4481" icon="1x/castleicon.png" adresas="Tauro g., Taurapilis, Utenos r. 28310 " telnr="" web="https://www.aparkai.lt/lankytinos-vietos/taurapilio-piliakalnis/" webc="Aukštaitijos nacionalinio parko svetainė" aut="RaDonas at the Lithuanian language Wikipedia / " teis="GFDL " photo="nuotraukos/taurapilis.jpg"/>
<marker ly="47" lcf="47" pav_en="Perloja castle" pav="Perlojos piliavietė" longti="24.3889" lat="54.2577" icon="1x/castleicon.png" adresas="Dvarčiai, Varėna" telnr="" web="" webc="" aut="Egidijus Šatavičius" teis="E.Šatavičiaus asmeninis archyvas, Nr. P6011252 " photo="nuotraukos/dvarciai.jpg"/>
<marker ly="48" lcf="48" pav_en="Apuolė castle" pav="Apuolės piliavietė" longti="21.6781" lat="56.2464" icon="1x/castleicon.png" adresas="Apuolė, Skuodo rajonas" telnr="" web="" webc="" aut="Rimantas Lazdynas / " teis="CC BY-SA " photo="nuotraukos/apuoles.jpg"/>
<marker ly="49" lcf="49" pav_en="Birštonas castle" pav="Birštono piliavietė" longti="24.0322" lat="54.5971" icon="1x/castleicon.png" adresas="Birštonas 59219" telnr="" web="" webc="" aut="Anaiptol at the Lithuanian language Wikipedia / " teis="GFDL " photo="nuotraukos/birstonas.jpg"/>
<marker ly="50" lcf="50" pav_en="Ukmergės castle" pav="Ukmergės piliavietė" longti="24.7665" lat="55.2497" icon="1x/castleicon.png" adresas="Piliakalnio g. 5, Ukmergė 20113" telnr="" web="" webc="" aut="RaDonas at the Lithuanian language Wikipedia / " teis="GFDL " photo="nuotraukos/ukmerge.jpg"/>
</markers>